City_ID,City,Lat,Lng,Max Temp,Humidity,Cloudiness,Wind Speed,Country,Date
0,Jinji,23.2281,110.8261,12.61,57,0,1.6,CN,1677442791
1,Ushuaia,-54.8,-68.3,12.81,58,75,2.06,AR,1677442792
2,Osorno,-40.5667,-73.15,20.14,48,75,2.57,CL,1677442793
3,Linhares,-19.3911,-40.0722,28.54,61,11,4.72,BR,1677442793
4,Tongling,30.95,117.7833,2.32,73,0,1.45,CN,1677442794
5,Esperance,-33.8667,121.9,17.14,80,100,4.41,AU,1677442795
6,Bredasdorp,-34.5322,20.0403,19.05,75,7,4.4,ZA,1677442795
7,Nikolskoye,59.7035,30.7861,-4.06,88,100,4.93,RU,1677442796
8,Karera,25.4667,78.15,20.71,25,100,1.5,IN,1677442797
9,Punta Arenas,-53.15,-70.9167,15.06,63,100,9.77,CL,1677442797
10,Te Anau,-45.4167,167.7167,12.27,89,61,0.52,NZ,1677442798
11,Bluff,-46.6,168.3333,13.62,83,97,2.18,NZ,1677442799
12,San Quintín,30.4833,-115.95,13.81,51,8,6.63,MX,1677442799
13,Margate,51.3813,1.3862,5.39,71,22,3.58,GB,1677442800
14,Narsaq,60.9167,-46.05,-2.88,79,100,0.74,GL,1677442800
15,Salalah,17.0151,54.0924,23.05,49,0,2.06,OM,1677442801
16,Zhangjiakou,40.81,114.8794,-1.54,59,22,0.69,CN,1677442801
17,Clyde River,70.4692,-68.5914,-29.87,69,93,3.6,CA,1677442802
18,Hasaki,35.7333,140.8333,-2.78,47,2,6.17,JP,1677442803
19,Pimenteiras,-6.2453,-41.4192,31.85,43,53,2.81,BR,1677442804
20,Busselton,-33.65,115.3333,19.37,71,100,4.8,AU,1677442805
21,Souillac,-20.5167,57.5167,24.21,88,20,1.54,MU,1677442806
22,Finschhafen,-6.6024,147.8681,25.75,88,100,1.3,PG,1677442806
23,Pevek,69.7008,170.3133,-32.77,94,20,1.98,RU,1677442807
24,Evensk,61.95,159.2333,-25.75,99,100,1.59,RU,1677442808
25,Vestmannaeyjar,63.4427,-20.2734,7.88,81,100,9.83,IS,1677442809
26,Hong Kong,22.2855,114.1577,15.21,66,12,4.92,HK,1677442672
27,Pundaguitan,6.3711,126.1689,26.82,81,98,7.32,PH,1677442810
28,Cherskiy,68.75,161.3,-35.31,97,5,2.29,RU,1677442811
29,Avarua,-21.2078,-159.775,29.03,61,64,2.06,CK,1677442811
30,Henties Bay,-22.116,14.2845,17.94,84,46,2.57,NA,1677442812
31,Hay River,60.8156,-115.7999,-15.02,72,40,5.66,CA,1677442813
32,Mahébourg,-20.4081,57.7,24.58,88,20,1.54,MU,1677442815
33,Vila Franca do Campo,37.7167,-25.4333,16.23,81,100,6.83,PT,1677442816
34,Ginda,30.6945,78.4932,7.73,39,0,3.19,IN,1677442818
35,Faanui,-16.4833,-151.75,28.12,72,16,5.09,PF,1677442819
36,Hengyang,26.8881,112.615,8.22,58,0,1.13,CN,1677442819
37,Yar-Sale,66.8333,70.8333,-23.38,100,88,1.35,RU,1677442820
38,Castro,-24.7911,-50.0119,22.5,86,71,2.73,BR,1677442821
39,Hithadhoo,-0.6,73.0833,27.34,78,15,3.17,MV,1677442821
40,Kapaa,22.0752,-159.319,22.18,85,75,8.23,US,1677442822
41,Albany,42.6001,-73.9662,4.4,69,66,1.34,US,1677442820
42,Ilulissat,69.2167,-51.1,-12.99,52,53,5.14,GL,1677442823
43,Dombarovskiy,50.7587,59.5386,-9.04,88,8,6.48,RU,1677442824
44,Jamestown,42.097,-79.2353,6.96,40,0,6.69,US,1677442758
45,Harper,4.375,-7.7169,26.57,86,100,4.73,LR,1677442825
46,Tessalit,20.1986,1.0114,22.85,9,0,3.47,ML,1677442826
47,Cape Town,-33.9258,18.4232,19.38,80,0,9.26,ZA,1677442805
48,Tasiilaq,65.6145,-37.6368,-2.91,76,100,3.79,GL,1677442827
49,Jacksonville Beach,30.2947,-81.3931,31.15,49,0,4.63,US,1677442828
50,Kirakira,-10.4544,161.9205,26.71,85,89,2.43,SB,1677442828
51,George Town,5.4112,100.3354,26.96,71,20,2.06,MY,1677442568
52,Gīdam,18.9833,81.4,17.98,31,0,0.84,IN,1677442829
53,Bethel,41.3712,-73.414,5.27,75,100,4.12,US,1677442565
54,Mbigou,-1.9005,11.906,19.29,96,99,1.08,GA,1677442830
55,Buala,-8.145,159.5921,26.45,83,100,1.74,SB,1677442831
56,Rocha,-34.4833,-54.3333,22.22,42,0,5.21,UY,1677442832
57,Sambava,-14.2667,50.1667,24.91,85,2,2.73,MG,1677442832
58,Mataura,-46.1927,168.8643,13.15,82,72,0.55,NZ,1677442833
59,Dikson,73.5069,80.5464,-28.12,99,98,7.74,RU,1677442834
60,Port-Gentil,-0.7193,8.7815,24.98,100,20,1.54,GA,1677442835
61,Rikitea,-23.1203,-134.9692,26.84,72,21,6.68,PF,1677442835
62,Tongliao,43.6125,122.2653,-0.51,54,6,6.86,CN,1677442836
63,Srandakan,-7.9386,110.2506,24.21,89,100,1.25,ID,1677442837
64,Ribeira Grande,38.5167,-28.7,12.1,87,40,15.43,PT,1677442838
65,Nirmal,19.1,78.35,24.15,27,0,1.82,IN,1677442839
66,Kumul,42.8,93.45,3.41,34,100,6.51,CN,1677442840
67,East London,-33.0153,27.9116,20.82,76,99,6.43,ZA,1677442841
68,Pangnirtung,66.1451,-65.7125,-34.1,96,38,1.73,CA,1677442842
69,Atuona,-9.8,-139.0333,26.67,77,7,6.76,PF,1677442843
70,Hobart,-42.8794,147.3294,12.92,94,75,4.12,AU,1677442495
71,Katsuura,35.1333,140.3,5.15,51,0,5.56,JP,1677442844
72,North Bend,43.4065,-124.2243,8.93,71,75,6.69,US,1677442844
73,Bayir,37.2687,28.2167,12.29,90,98,4.52,TR,1677442845
74,Roebourne,-20.7833,117.1333,28.85,71,80,3.54,AU,1677442846
75,Meulaboh,4.1363,96.1285,23.9,89,93,1.64,ID,1677442846
76,Yangi Marg`ilon,40.4272,71.7189,4.68,71,15,0.98,UZ,1677442847
77,Hermanus,-34.4187,19.2345,18.22,79,0,5.59,ZA,1677442847
78,Tuktoyaktuk,69.4541,-133.0374,-21.0,77,100,5.14,CA,1677442848
79,Morro Bay,35.3658,-120.8499,13.38,67,84,2.68,US,1677442848
80,Port Alfred,-33.5906,26.891,19.54,94,32,2.24,ZA,1677442849
81,Eureka,40.8021,-124.1637,9.55,90,98,2.97,US,1677442568
82,Vostok,46.4856,135.8833,-16.26,96,13,2.88,RU,1677442849
83,Puerto Ayora,-0.7393,-90.3518,28.98,91,98,5.36,EC,1677442850
84,Kūhdasht,33.535,47.6061,11.93,44,72,1.19,IR,1677442850
85,Arraial do Cabo,-22.9661,-42.0278,29.98,65,0,7.2,BR,1677442851
86,Torbay,47.6666,-52.7314,-11.8,66,75,9.26,CA,1677442851
87,Tiksi,71.6872,128.8694,-33.12,97,100,5.2,RU,1677442852
88,Basoko,1.2391,23.616,23.2,78,100,1.67,CD,1677442852
89,Saint Augustine,29.8947,-81.3145,31.15,54,20,3.6,US,1677442853
90,Bonga,7.2833,36.2333,20.81,53,100,0.99,ET,1677442853
91,Raudeberg,61.9875,5.1352,3.26,21,100,1.47,NO,1677442854
92,Aktau,43.65,51.2,3.32,91,5,4.95,KZ,1677442854
93,Saint George,37.1041,-113.5841,7.36,54,100,6.69,US,1677442823
94,Omboué,-1.5746,9.2618,21.61,92,100,5.62,GA,1677442855
95,Yumen,40.2833,97.2,-0.5,54,8,2.13,CN,1677442855
96,Dunnville,42.9001,-79.6163,2.84,85,22,5.36,CA,1677442856
97,Karratha,-20.7377,116.8463,28.6,74,83,3.87,AU,1677442856
98,Kruisfontein,-34.0033,24.7314,19.94,90,10,4.28,ZA,1677442857
99,Dunedin,-45.8742,170.5036,13.42,84,100,0.95,NZ,1677442773
100,Buraidah,26.326,43.975,19.25,30,26,4.47,SA,1677442857
101,Thompson,55.7435,-97.8558,-11.91,61,100,2.57,CA,1677442858
102,Panzhihua,26.5851,101.7128,8.89,87,9,0.78,CN,1677442859
103,College,64.8569,-147.8028,-17.74,78,75,1.54,US,1677442606
104,Bo Rai,12.5728,102.5371,24.29,70,39,3.89,TH,1677442859
105,Longyearbyen,78.2186,15.6401,-1.09,55,75,12.35,SJ,1677442860
106,Thohoyandou,-22.9456,30.485,18.95,95,100,5.98,ZA,1677442861
107,Nabire,-3.3667,135.4833,24.07,90,98,1.13,ID,1677442862
108,Dire Dawa,9.5931,41.8661,21.52,69,44,1.28,ET,1677442863
109,Husavik,66.0449,-17.3389,2.9,82,8,5.41,IS,1677442864
110,Porto Belo,-27.1578,-48.5531,24.33,91,100,3.58,BR,1677442864
111,Galle,6.0367,80.217,22.97,81,100,2.58,LK,1677442865
112,Fare,-16.7,-151.0167,28.06,70,18,5.2,PF,1677442866
113,Berlevåg,70.8578,29.0864,3.0,93,75,7.72,NO,1677442867
114,Tual,-5.6667,132.75,28.33,78,99,6.34,ID,1677442867
115,Samarai,-10.6167,150.6667,26.92,79,100,2.75,PG,1677442868
116,Sorong,-0.8833,131.25,26.9,83,100,3.94,ID,1677442869
117,Arrifes,37.7667,-25.7,15.14,82,20,6.17,PT,1677442870
118,Baryatino,54.3121,34.521,-5.92,90,100,6.08,RU,1677442871
119,Mayumba,-3.432,10.6554,25.72,87,100,2.46,GA,1677442872
120,Puerto Colombia,10.9878,-74.9547,29.05,76,72,10.25,CO,1677442873
121,New Norfolk,-42.7826,147.0587,12.73,77,98,0.86,AU,1677442873
122,Ust-Tsilma,65.441,52.1498,-22.37,100,100,1.46,RU,1677442874
123,Talara,-4.5772,-81.2719,30.42,54,0,5.66,PE,1677442875
124,Lavrentiya,65.5833,-171.0,-28.7,89,14,1.34,RU,1677442876
125,Kavieng,-2.5744,150.7967,27.5,74,91,1.62,PG,1677442877
126,Juneau,58.3019,-134.4197,-2.1,97,75,0.0,US,1677442877
127,Baringo,0.4667,35.9667,25.55,43,97,0.87,KE,1677442878
128,Whitehorse,60.7161,-135.0538,-15.5,75,75,3.6,CA,1677442879
129,Kirsanov,52.6549,42.7224,0.52,92,100,5.63,RU,1677442879
130,Beroroha,-21.6667,45.1667,23.0,87,100,1.05,MG,1677442880
131,Ancud,-41.8697,-73.8203,15.21,66,36,4.68,CL,1677442881
132,Grand Gaube,-20.0064,57.6608,24.65,79,4,0.89,MU,1677442881
133,Mount Gambier,-37.8333,140.7667,14.18,88,99,2.97,AU,1677442882
134,Saint Paul Harbor,57.79,-152.4072,0.73,47,0,10.8,US,1677442883
135,Vaini,-21.2,-175.2,28.09,89,75,4.63,TO,1677442884
136,Kieta,-6.2167,155.6333,26.1,84,80,1.66,PG,1677442885
137,Padang,-0.9492,100.3543,24.75,81,67,2.61,ID,1677442886
138,Vanimo,-2.6741,141.3028,24.67,89,90,2.36,PG,1677442887
139,Lompoc,34.6391,-120.4579,14.18,63,46,2.24,US,1677442888
140,Broome,42.2506,-75.833,7.21,43,20,8.75,US,1677442888
141,Diffa,13.3154,12.6113,27.05,9,18,2.98,NE,1677442889
142,Cassilândia,-19.1133,-51.7342,28.1,74,95,0.66,BR,1677442890
143,Anadyr,64.75,177.4833,-23.72,76,100,6.0,RU,1677442890
144,Basti,26.8,82.7167,16.56,36,4,2.1,IN,1677442892
145,Deniliquin,-35.5333,144.9667,14.45,88,0,2.95,AU,1677442892
146,Severo-Kuril'sk,50.6789,156.125,-5.84,76,100,3.53,RU,1677442893
147,Bathsheba,13.2167,-59.5167,28.34,61,40,6.17,BB,1677442894
148,Huangyan,28.6478,121.2594,2.77,83,8,1.52,CN,1677442894
149,Hilo,19.7297,-155.09,23.86,80,75,4.63,US,1677442861
150,Barrow,71.2906,-156.7887,-24.99,77,100,11.32,US,1677442896
151,Lenger,42.183,69.8839,-2.31,66,1,3.23,KZ,1677442896
152,Maniitsoq,65.4167,-52.9,-14.85,87,100,3.93,GL,1677442897
153,Oistins,13.0667,-59.5333,28.05,61,40,6.17,BB,1677442889
154,Tuatapere,-46.1333,167.6833,12.56,86,79,0.99,NZ,1677442898
155,Vilhena,-12.7406,-60.1458,29.12,58,40,1.54,BR,1677442618
156,Bethanien,-26.502,17.1583,28.68,19,45,4.24,NA,1677442899
157,Teya,60.3778,92.6267,-12.55,93,100,2.88,RU,1677442900
158,Atyrau,47.1167,51.8833,0.01,86,37,5.0,KZ,1677442678
159,Lebu,-37.6167,-73.65,16.0,64,42,9.8,CL,1677442901
160,Manokwari,-0.8667,134.0833,25.2,77,72,1.82,ID,1677442901
161,Pringsewu,-5.3582,104.9744,22.19,97,92,1.03,ID,1677442902
162,Waingapu,-9.6567,120.2641,24.77,90,100,3.65,ID,1677442903
163,Vardø,70.3705,31.1107,-2.01,86,75,10.29,NO,1677442903
164,Verkhoyansk,67.5447,133.385,-20.99,99,100,2.07,RU,1677442904
165,Saint-Philippe,-21.3585,55.7679,25.77,82,19,2.43,RE,1677442905
166,Provideniya,64.3833,-173.3,-24.51,86,14,1.9,RU,1677442905
167,Ambunti,-4.2365,142.8448,23.08,99,100,0.5,PG,1677442906
168,Merauke,-8.4667,140.3333,26.16,87,100,4.3,ID,1677442907
169,Saldanha,-33.0117,17.9442,17.96,82,0,9.82,ZA,1677442907
170,Cabo San Lucas,22.8909,-109.9124,25.9,73,75,4.12,MX,1677442908
171,Banda Aceh,5.5577,95.3222,25.11,82,46,5.59,ID,1677442909
172,Ayr,55.4627,-4.6339,2.99,81,0,3.6,GB,1677442909
173,Sørland,67.667,12.6934,5.92,94,100,7.01,NO,1677442910
174,Poum,-20.2333,164.0167,26.31,81,95,3.56,NC,1677442910
175,Darovskoy,58.77,47.9564,0.38,97,100,4.8,RU,1677442911
176,Bergen,60.392,5.328,4.37,92,75,3.09,NO,1677442912
177,Ugra,54.7777,34.3267,-5.88,90,100,5.27,RU,1677442912
178,San Rafael,-34.6177,-68.3301,28.1,13,5,4.56,AR,1677442841
179,Inírida,3.8653,-67.9239,32.19,52,97,0.51,CO,1677442913
180,Beringovskiy,63.05,179.3167,-20.5,98,45,2.79,RU,1677442913
181,Quatre Cocos,-20.2078,57.7625,24.49,79,8,2.27,MU,1677442914
182,Carnarvon,-24.8667,113.6333,24.99,81,100,6.46,AU,1677442785
183,San Juan,-31.5375,-68.5364,29.8,16,0,3.18,AR,1677442818
184,Flinders,-34.5833,150.8552,21.21,82,71,1.79,AU,1677442915
185,San Cristobal,7.7669,-72.225,25.1,33,42,0.5,VE,1677442915
186,Minudasht,37.2289,55.3747,6.18,59,0,0.89,IR,1677442916
187,Lagoa,39.05,-27.9833,13.37,67,3,14.87,PT,1677442917
188,Nokaneng,-19.6667,22.2667,25.87,34,13,3.68,BW,1677442917
189,Oeiras do Pará,-2.0031,-49.8544,28.72,75,98,1.48,BR,1677442752
190,Haapiti,-17.5667,-149.8667,29.85,72,21,6.49,PF,1677442918
191,Orange Cove,36.6244,-119.3137,11.94,73,75,3.09,US,1677442918
192,Coahuayana Viejo,18.7333,-103.6833,31.97,38,100,3.55,MX,1677442919
193,São Miguel do Araguaia,-13.275,-50.1628,30.32,64,29,0.93,BR,1677442920
194,Walvis Bay,-22.9575,14.5053,17.53,82,15,1.03,NA,1677442920
195,Ahipara,-35.1667,173.1667,18.14,90,74,2.06,NZ,1677442921
196,Polyarny,69.1989,33.4478,-9.12,91,100,5.91,RU,1677442922
197,Shache,38.4167,77.2406,7.22,46,100,2.28,CN,1677442922
198,San Borja,-14.8167,-66.85,28.21,88,100,1.78,BO,1677442923
199,Requena,39.4883,-1.1004,2.51,40,1,7.82,ES,1677442925
200,Nome,64.5011,-165.4064,-26.02,83,40,1.54,US,1677442926
201,Kutum,14.2,24.6667,22.12,16,12,4.64,SD,1677442926
202,Amos,48.5669,-78.1162,-4.99,85,100,3.46,CA,1677442927
203,Bucksport,44.5737,-68.7956,-4.58,81,100,0.89,US,1677442928
204,Mar del Plata,-38.0023,-57.5575,23.01,42,20,5.14,AR,1677442929
205,Upernavik,72.7868,-56.1549,-17.85,97,100,1.33,GL,1677442914
206,Ocotlán,20.35,-102.7667,29.76,25,100,2.49,MX,1677442839
207,Praia da Vitória,38.7333,-27.0667,14.31,82,20,10.39,PT,1677442931
208,Cidreira,-30.1811,-50.2056,27.61,58,2,3.96,BR,1677442931
209,Ferrol,43.4832,-8.2369,9.82,70,33,7.91,ES,1677442932
210,Muros,42.7762,-9.0603,8.97,65,0,6.28,ES,1677442933
211,Deer Lake,49.1667,-57.4316,-13.08,56,40,3.09,CA,1677442934
212,Sredniy Ikorets,51.0675,39.7584,0.94,96,100,3.79,RU,1677442935
213,Buena Vista,43.4203,-83.8986,5.03,38,0,6.17,US,1677442936
214,Umba,66.6871,34.3429,-20.19,99,65,1.12,RU,1677442937
215,Saint Anthony,45.0205,-93.218,0.63,43,0,5.66,US,1677442938
216,Urengoy,65.9667,78.3667,-21.19,100,90,1.92,RU,1677442939
217,Pesca,5.55,-73.05,17.69,51,99,3.38,CO,1677442939
218,Nhulunbuy,-12.2333,136.7667,25.34,94,100,0.0,AU,1677442940
219,Santana do Acaraú,-3.4606,-40.2122,30.26,57,100,3.33,BR,1677442941
220,Nador,35.174,-2.9287,14.14,67,0,6.17,MA,1677442942
221,Port Hedland,-20.3167,118.5667,27.03,89,63,1.03,AU,1677442943
222,Novikovo,51.1537,37.8879,0.03,95,100,2.73,RU,1677442944
223,Abu Samrah,35.3029,37.1841,13.78,52,0,2.61,SY,1677442945
224,Mitsamiouli,-11.3847,43.2844,26.81,77,99,2.63,KM,1677442946
225,Tari,12.4086,4.4914,30.52,11,41,2.73,NG,1677442947
226,Nyrob,60.733,56.7202,-3.5,96,100,4.74,RU,1677442947
227,Qaqortoq,60.7167,-46.0333,-8.23,77,100,1.84,GL,1677442948
228,Bangangté,5.1409,10.5198,19.31,81,61,3.24,CM,1677442948
229,Havre-St-Pierre,50.2334,-63.5986,-11.0,48,0,6.17,CA,1677442782
230,Gizo Government Station,-8.103,156.8419,28.3,76,100,2.96,SB,1677442949
231,Biak,-0.9131,122.8766,24.61,79,98,1.46,ID,1677442950
232,Khatanga,71.9667,102.5,-27.12,86,100,7.04,RU,1677442951
233,Olafsvik,64.8945,-23.7142,6.31,88,100,9.5,IS,1677442952
234,Dāmghān,36.1683,54.348,9.01,60,0,1.15,IR,1677442953
235,Nizhniy Kuranakh,58.8353,125.4869,-10.8,89,100,5.1,RU,1677442953
236,Gua,22.2,85.3833,18.0,60,0,1.08,IN,1677442954
237,São João da Barra,-21.6403,-41.0511,30.05,83,14,7.91,BR,1677442955
238,Gamba,-2.65,10.0,24.75,90,100,3.43,GA,1677442956
239,Los Llanos de Aridane,28.6585,-17.9182,15.86,91,0,1.54,ES,1677442956
240,Bud,39.447,-86.1758,15.42,51,100,2.69,US,1677442957
241,Ganta,7.3022,-8.5308,22.22,88,99,0.46,LR,1677442958
242,Tournon-sur-Rhône,45.0667,4.8333,1.81,56,100,9.35,FR,1677442959
243,San Ignacio,17.1561,-89.0714,31.08,51,75,4.12,BZ,1677442960
244,Kwekwe,-18.9281,29.8149,18.44,82,100,4.8,ZW,1677442961
245,Al Bardīyah,31.7561,25.0865,18.09,43,64,5.18,LY,1677442962
246,Jämsä,61.8642,25.19,-10.6,100,81,1.47,FI,1677442962
247,Berdigestyakh,62.0989,126.6992,-20.93,89,98,4.87,RU,1677442963
248,Pervomayskoye,43.919,46.7102,3.71,91,48,2.68,RU,1677442963
249,Brits,-25.6347,27.7802,22.85,73,34,6.2,ZA,1677442964
250,Sandviken,60.6167,16.7667,2.28,76,99,2.14,SE,1677442965
251,Mersing,2.4312,103.8405,24.95,94,40,7.2,MY,1677442966
252,Hualmay,-11.0964,-77.6139,24.51,76,87,3.32,PE,1677442966
253,Bemidji,47.4736,-94.8803,-1.36,45,0,6.17,US,1677442889
254,Nara,34.6851,135.8049,1.06,61,5,1.53,JP,1677442967
255,Anaconda,46.1285,-112.9423,4.55,85,43,4.66,US,1677442967
256,Kyzyl-Suu,42.3414,78.0056,-3.39,53,6,4.1,KG,1677442968
257,Drayton Valley,53.2168,-114.9854,-6.82,85,100,3.3,CA,1677442968
258,Flin Flon,54.7682,-101.865,-10.09,57,100,3.09,CA,1677442969
259,Laas,46.6166,10.7002,0.94,78,100,2.57,IT,1677442970
260,Port Hawkesbury,45.6169,-61.3485,-7.23,64,20,4.47,CA,1677442970
261,Caravelas,-17.7125,-39.2481,27.79,71,0,3.86,BR,1677442971
262,Izačić,44.875,15.7819,-1.18,98,100,5.54,BA,1677442971
263,Aktas,49.7789,72.9608,-13.14,89,99,1.62,KZ,1677442972
264,Siniscola,40.5719,9.6922,6.75,74,91,3.04,IT,1677442972
265,Jacareacanga,-6.2222,-57.7528,30.36,64,98,2.13,BR,1677442973
266,Toora-Khem,52.4675,96.11,-24.42,100,80,0.73,RU,1677442974
267,Yellowknife,62.456,-114.3525,-13.71,78,75,1.54,CA,1677442759
268,Avera,33.194,-82.5271,25.73,53,99,6.37,US,1677442975
269,Abadan,38.0507,58.2056,6.85,65,0,2.06,TM,1677442977
270,Camacha,33.0833,-16.3333,15.68,82,20,3.6,PT,1677442978
271,Yanggu,36.1106,115.7753,3.25,49,0,4.36,CN,1677442978
272,Tsimlyansk,47.6461,42.1019,4.5,78,100,4.89,RU,1677442979
273,Kloulklubed,7.0419,134.2556,25.28,73,100,9.8,PW,1677442979
274,Wenling,28.3669,121.36,4.25,77,43,3.5,CN,1677442980
275,San Patricio,28.017,-97.5169,27.97,56,75,8.77,US,1677442981
276,Chemal,51.4111,86.005,-7.87,89,100,1.78,RU,1677442981
277,Uppsala County,60.0,17.75,-6.27,92,100,0.51,SE,1677442982
278,Geraldton,-28.7667,114.6,24.23,50,100,2.06,AU,1677442983
279,Port Elizabeth,-33.918,25.5701,21.17,88,75,6.17,ZA,1677442983
280,At-Bashi,41.1702,75.8106,-14.1,61,100,1.46,KG,1677442984
281,Fairbanks,64.8378,-147.7164,-17.73,78,75,1.54,US,1677442972
282,Mabaruma,8.2,-59.7833,26.95,67,54,3.19,GY,1677442985
283,Nelson Bay,-32.7167,152.15,23.33,86,81,2.24,AU,1677442986
284,Puerto Escondido,15.85,-97.0667,31.46,66,0,5.14,MX,1677442986
285,Narón,43.5167,-8.1528,10.01,69,39,7.5,ES,1677442987
286,Nacala,-14.5428,40.6728,26.18,83,100,3.34,MZ,1677442988
287,Zhezkazgan,47.8043,67.7144,-12.86,87,100,2.89,KZ,1677442989
288,Emerald,-23.5333,148.1667,19.63,85,100,3.14,AU,1677442990
289,Chokurdakh,70.6333,147.9167,-26.79,97,100,2.89,RU,1677442992
290,Tiznit Province,29.5833,-9.5,12.2,95,71,3.79,MA,1677442993
291,Zhengjiatun,43.5064,123.5064,-0.73,59,0,7.93,CN,1677442994
292,Kenai,60.5544,-151.2583,-9.95,88,0,2.57,US,1677442995
293,Paraíso,9.8383,-83.8656,26.2,74,78,2.2,CR,1677442996
294,Isangel,-19.55,169.2667,27.06,94,14,1.03,VU,1677442997
295,Mandalī,33.7499,45.5541,18.04,32,1,4.72,IQ,1677442998
296,Chapais,49.7834,-74.8492,-11.12,83,100,1.15,CA,1677443001
297,Pochutla,15.7432,-96.4661,31.9,47,62,4.19,MX,1677443002
298,Codrington,-38.2667,141.9667,15.13,84,100,5.15,AU,1677443002
299,Tarnogskiy Gorodok,60.4997,43.5761,-2.62,97,100,2.86,RU,1677442760
300,The Valley,18.217,-63.0578,26.08,69,20,4.63,AI,1677443004
301,Kindu,-2.95,25.95,21.59,94,100,0.94,CD,1677443004
302,Marystown,47.1666,-55.1483,-10.41,67,100,6.51,CA,1677443005
303,Chato,-2.6378,31.7669,19.7,89,100,2.44,TZ,1677443006
304,Ishigaki,24.3448,124.1572,16.07,77,75,3.6,JP,1677443007
305,Maceió,-9.6658,-35.7353,29.69,70,20,7.2,BR,1677443008
306,Chui,-33.6971,-53.4616,22.34,47,0,6.22,UY,1677443008
307,Awjilah,29.1081,21.2869,24.16,12,83,8.01,LY,1677443009
308,Qaanaaq,77.484,-69.3632,-23.87,79,100,4.23,GL,1677443010
309,Paraty,-23.2178,-44.7131,28.23,86,91,0.56,BR,1677443010
310,Verín,41.9415,-7.4381,5.31,88,1,1.46,ES,1677443011
311,Marawi,7.9986,124.2928,19.53,94,90,0.6,PH,1677443012
312,Edirne,41.6772,26.556,14.89,69,89,7.34,TR,1677442992
313,Brewster,41.3973,-73.6171,6.67,78,100,4.12,US,1677443013
314,Saint-Pierre,-21.3393,55.4781,25.82,69,0,3.09,RE,1677443014
315,Dhidhdhoo,6.8833,73.1,27.0,69,8,2.91,MV,1677443014
316,Sungai Penuh,-2.0833,101.3833,16.76,96,83,1.95,ID,1677443015
317,Shenjiamen,29.9576,122.298,5.87,70,56,2.77,CN,1677443016
318,Port Hardy,50.6996,-127.4199,1.1,93,75,2.57,CA,1677443016
319,Wigston,52.5863,-1.1059,4.22,79,4,2.9,GB,1677443017
320,Phalaborwa,-23.943,31.1411,21.6,92,100,6.31,ZA,1677443018
321,Valparaíso,-33.0393,-71.6273,33.13,25,0,6.69,CL,1677443019
322,Sikasso,10.9167,-7.0,31.1,16,47,1.96,ML,1677443019
323,Kaitangata,-46.2817,169.8464,12.45,89,100,1.25,NZ,1677443020
324,Egvekinot,66.3167,-179.1667,-30.58,98,88,1.91,RU,1677443022
325,Yingkou,40.6648,122.2283,0.72,45,0,5.73,CN,1677443022
326,Manzhouli,49.6,117.4333,-13.85,96,63,2.37,CN,1677443024
327,Todos Santos,23.45,-110.2167,20.25,71,93,6.05,MX,1677442931
328,Port Blair,11.6667,92.75,27.02,78,75,1.54,IN,1677443025
329,Vangaindrano,-23.35,47.6,24.05,92,91,2.22,MG,1677443025
330,Mackenzie,55.2999,-123.1698,-12.88,78,100,3.09,CA,1677443026
331,Cayenne,4.9333,-52.3333,25.02,94,75,3.6,GF,1677442878
332,Taiyuan,37.8694,112.5603,-1.08,80,2,0.0,CN,1677443027
333,Grand Forks,47.9417,-97.4337,-6.23,62,0,6.69,US,1677442876
334,Vao,-22.6667,167.4833,24.49,77,97,7.27,NC,1677443027
335,Northam,51.0333,-4.2167,6.45,70,7,3.32,GB,1677443028
336,Bengkulu,-3.8004,102.2655,23.68,89,39,2.32,ID,1677443028
337,Kuandian,40.7286,124.7847,-3.22,49,0,1.23,CN,1677443029
338,Brønnøysund,65.4625,12.1997,5.0,100,75,3.6,NO,1677443030
339,Bonavista,48.6499,-53.1147,-12.39,74,100,12.46,CA,1677443030
340,Semypolky,50.7167,30.9333,3.85,78,100,1.43,UA,1677442940
341,Aksu,41.1231,80.2644,5.24,44,100,1.99,CN,1677443031
342,Peace River,56.2501,-117.286,-5.83,73,75,4.63,CA,1677442820
343,Del Rio,29.3627,-100.8968,28.4,54,20,10.29,US,1677443032
344,Sheridan,44.8333,-106.9173,5.21,45,0,0.0,US,1677442531
345,Esna,25.2934,32.554,18.79,22,0,2.71,EG,1677443032
346,Malanje,-9.5402,16.341,18.86,90,49,1.76,AO,1677443033
347,Atambua,-9.1061,124.8925,23.1,92,100,4.23,ID,1677443034
348,Moose Factory,51.2585,-80.6094,-10.0,44,0,5.66,CA,1677443034
349,Iqaluit,63.7506,-68.5145,-30.73,67,75,1.03,CA,1677443035
350,Auki,-8.7676,160.7034,26.11,86,100,0.62,SB,1677443035
351,Saurimo,-9.6608,20.3916,18.54,95,100,1.42,AO,1677443036
352,Arrecife,28.963,-13.5477,18.99,72,40,3.09,ES,1677443036
353,Nanortalik,60.1432,-45.2371,-7.84,94,100,7.05,GL,1677443037
354,Iset',56.9779,60.3718,-2.27,88,97,4.38,RU,1677443037
355,Port Macquarie,-31.4333,152.9167,18.83,89,25,3.82,AU,1677443038
356,Dom Pedrito,-30.9828,-54.6731,34.25,19,1,3.34,BR,1677442758
357,Kaeo,-35.1,173.7833,19.07,96,89,3.11,NZ,1677443039
358,Tiarei,-17.5333,-149.3333,30.01,74,29,6.21,PF,1677443039
359,Kuching,1.55,110.3333,26.14,93,40,4.02,MY,1677443040
360,Luba,3.4568,8.5547,27.94,81,94,5.22,GQ,1677443040
361,Maragogi,-9.0122,-35.2225,27.72,70,5,4.46,BR,1677442970
362,Alta Floresta,-9.8756,-56.0861,27.68,76,91,1.56,BR,1677443041
363,Quelimane,-17.8786,36.8883,25.97,89,75,2.06,MZ,1677443042
364,Laguna,38.421,-121.4238,10.16,78,100,6.69,US,1677442963
365,Guerrero Negro,27.9769,-114.0611,16.21,49,13,7.79,MX,1677442874
366,Naze,28.3667,129.4833,13.51,64,100,7.76,JP,1677443044
367,Alofi,-19.0595,-169.9187,28.94,70,20,5.14,NU,1677443045
368,Oranjemund,-28.55,16.4333,16.13,92,0,4.0,NA,1677443046
369,Aykhal,66.0,111.5,-32.46,98,100,2.71,RU,1677443048
370,Lere,10.387,8.5726,26.33,12,42,2.75,NG,1677443048
371,Labuhan,-6.8844,112.2051,24.82,89,100,4.04,ID,1677443050
372,Dabakala,8.3667,-4.4333,31.51,36,99,1.46,CI,1677443051
373,Conde,-7.2597,-34.9075,28.7,65,20,5.66,BR,1677443052
374,Maţāy,28.419,30.7792,16.68,34,14,3.5,EG,1677443053
375,Southbridge,42.0751,-72.0334,3.46,85,98,0.89,US,1677443055
376,Szprotawa,51.5656,15.5366,-1.53,85,16,2.66,PL,1677443056
377,Mayo,38.8876,-76.5119,13.95,63,0,5.66,US,1677443057
378,Jining,35.405,116.5814,2.03,54,0,3.19,CN,1677443058
379,Rio Grande,-32.035,-52.0986,32.06,68,3,8.51,BR,1677443059
380,Atar,20.5169,-13.0499,22.83,19,90,3.87,MR,1677443060
381,Ende,-8.8432,121.6623,25.15,87,100,2.15,ID,1677443061
382,Jaraguá,-15.7569,-49.3344,26.17,74,97,2.53,BR,1677442827
383,Vilyuysk,63.7553,121.6247,-36.01,98,13,2.21,RU,1677443062
384,Carnot,4.9409,15.8665,25.09,20,91,1.18,CF,1677443063
385,Plouzané,48.3833,-4.6167,5.18,68,75,6.17,FR,1677443064
386,Nālūt,30.3333,10.85,15.13,22,37,1.91,LY,1677443065
387,Half Moon Bay,37.4636,-122.4286,11.88,76,75,8.23,US,1677442970
388,Urubichá,-15.3833,-62.95,31.34,55,85,1.84,BO,1677442929
389,Rognan,67.0953,15.3878,5.31,100,100,2.14,NO,1677443067
390,Pitsunda,43.1592,40.3378,10.1,69,7,4.59,GE,1677443068
391,Ifanadiana,-21.3,47.6333,20.72,99,84,0.47,MG,1677443069
392,Mount Isa,-20.7333,139.5,23.87,83,75,3.6,AU,1677443070
393,Sorrento,40.626,14.3744,12.92,87,40,6.17,IT,1677443070
394,Makakilo City,21.3469,-158.0858,25.18,62,40,7.2,US,1677443071
395,Roald,62.5833,6.1333,5.97,87,75,6.17,NO,1677443072
396,Tarakan,3.3,117.6333,25.72,94,75,0.51,ID,1677443072
397,Pancol,10.8715,119.4157,26.12,83,96,8.81,PH,1677443073
398,Lauingen,48.5677,10.4271,-0.17,80,23,6.99,DE,1677443074
399,Port Pirie,-33.1833,138.0167,16.64,64,0,2.39,AU,1677443076
400,Itaituba,-4.2761,-55.9836,32.09,62,40,2.57,BR,1677443076
401,Mahenge,-8.6833,36.7167,19.5,65,100,1.36,TZ,1677443077
402,Porto-Novo,6.4965,2.6036,27.67,79,91,4.12,BJ,1677443078
403,Karpathos,35.507,27.2132,15.98,82,100,8.75,GR,1677443080
404,Maralal,1.0968,36.698,16.73,62,96,2.96,KE,1677443081
405,Zabul Province,32.25,67.25,9.09,53,0,3.41,AF,1677443081
406,Panino,51.6467,40.1346,-0.31,95,100,3.85,RU,1677442819
407,Tilichiki,60.4667,166.1,-30.67,96,14,2.6,RU,1677443083
408,Molina de Segura,38.0546,-1.2076,13.39,40,6,2.24,ES,1677442859
409,Micheweni,-4.9667,39.8333,26.93,77,100,6.28,TZ,1677443084
410,Turukhansk,65.8167,87.9833,-16.01,97,98,2.56,RU,1677443084
411,Romanovo,52.6182,81.2271,-9.76,86,100,7.2,RU,1677443001
412,Bantry,51.6833,-9.45,7.1,72,50,5.97,IE,1677443085
413,Chegdomyn,51.1167,133.0167,-16.93,99,100,0.44,RU,1677443086
414,Adré,13.4667,22.2,26.5,16,68,3.5,TD,1677443086
415,Nova Olímpia,-14.7972,-57.2881,31.35,57,57,1.94,BR,1677443036
416,Xai-Xai,-25.0519,33.6442,22.89,91,100,4.02,MZ,1677443087
417,Katherine,-14.4667,132.2667,25.18,88,75,3.09,AU,1677443087
418,Bartica,6.4,-58.6167,29.18,61,99,2.54,GY,1677443088
419,Portland,45.5234,-122.6762,4.99,92,100,3.09,US,1677442445
420,Sibu,2.3,111.8167,23.17,100,40,1.03,MY,1677443089
421,Rybnoye,54.7256,39.5119,-2.76,82,87,7.98,RU,1677443089
422,Korla,41.7597,86.1469,4.55,43,85,4.63,CN,1677443090
423,Sitka,57.0531,-135.33,0.94,60,0,2.57,US,1677443091
424,Bouloupari,-21.8667,166.05,24.95,88,59,3.49,NC,1677443091
425,Ottawa,45.4112,-75.6981,0.42,75,40,2.57,CA,1677442879
426,Zhigansk,66.7697,123.3711,-37.44,98,54,2.43,RU,1677443092
427,Jalu,29.0331,21.5482,23.89,12,91,7.84,LY,1677443093
428,Bulgan,48.8125,103.5347,-7.3,91,100,4.25,MN,1677443094
429,Kiryat Gat,31.61,34.7642,16.33,86,0,2.03,IL,1677443055
430,Cham,47.1821,8.4636,1.1,73,100,5.14,CH,1677443095
431,St. George's,12.0564,-61.7485,27.82,69,20,7.72,GD,1677443096
432,Skorodnoye,51.071,37.2276,-0.96,94,100,2.94,RU,1677443096
433,Lyubashivka,47.8372,30.2598,2.69,96,100,5.4,UA,1677443097
434,Ostrovnoy,68.0531,39.5131,-13.58,98,95,3.12,RU,1677443097
435,Riyadh,24.6877,46.7219,22.08,31,68,3.23,SA,1677442968
436,Villazón,-22.0866,-65.5942,19.81,33,92,9.03,BO,1677443098
437,Kudahuvadhoo,2.6708,72.8944,27.49,67,19,7.41,MV,1677443098
438,Motygino,58.1831,94.7592,-12.04,94,100,3.55,RU,1677443099
439,Klaksvík,62.2266,-6.589,6.51,78,15,4.48,FO,1677443099
440,Bagerovo,45.3742,36.2971,7.67,88,97,5.73,UA,1677443100
441,Limbang,4.75,115.0,25.06,94,100,0.54,MY,1677443100
442,Alihe,50.5667,123.7167,-13.87,97,88,1.32,CN,1677443101
443,Beyneu,45.3167,55.2,0.78,47,5,6.75,KZ,1677443102
444,Yulara,-25.2406,130.9889,24.79,39,97,6.15,AU,1677443103
445,Funadhoo,6.15,73.2667,26.72,74,10,3.73,MV,1677443104
446,Ayan,56.45,138.1667,-14.87,88,11,2.17,RU,1677443105
447,Srednekolymsk,67.45,153.6833,-38.63,99,32,2.38,RU,1677443105
448,Ponta do Sol,32.6667,-17.1,18.17,79,100,2.38,PT,1677443106
449,Sittwe,20.15,92.9,22.49,44,0,3.03,MM,1677443107
450,Dombasle-sur-Meurthe,48.6252,6.3497,1.38,63,100,8.23,FR,1677443107
451,Cururupu,-1.8283,-44.8683,26.24,87,88,2.1,BR,1677443108
452,Saskylakh,71.9167,114.0833,-22.08,96,100,8.25,RU,1677443109
453,Ken Caryl,39.5773,-105.1169,15.5,21,96,9.83,US,1677443109
454,Praia,14.9215,-23.5087,21.3,64,40,6.69,CV,1677443110
455,Prince Rupert,54.3161,-130.3201,3.05,75,100,3.09,CA,1677442814
456,São Filipe,14.8961,-24.4956,21.19,74,91,4.53,CV,1677443111
457,Seguin,29.5688,-97.9647,26.66,66,100,7.72,US,1677443046
458,Atkinson,42.8384,-71.147,2.97,71,100,1.54,US,1677443114
459,Atagay,55.1033,99.3875,-17.22,99,83,1.52,RU,1677443115
460,Zyryanka,65.75,150.85,-32.85,94,100,2.41,RU,1677443117
461,Beaverlodge,55.2166,-119.4361,-8.36,88,100,3.67,CA,1677443118
462,Ixtapa,20.7,-105.2,24.57,65,0,5.14,MX,1677443118
463,Guilin,25.2819,110.2864,5.06,60,4,1.47,CN,1677443119
464,Haines Junction,60.7522,-137.5108,-13.03,61,80,2.57,CA,1677443120
465,Estación Coahuila,32.1939,-115.0017,16.45,24,0,2.08,MX,1677443120
466,Le Moule,16.3332,-61.3473,28.02,100,14,1.34,GP,1677442871
467,Mwinilunga,-11.7358,24.4293,18.0,95,100,0.31,ZM,1677443121
468,Eenhana,-17.4667,16.3333,27.46,35,100,2.7,NA,1677443122
469,Bairiki Village,1.3292,172.9752,28.0,78,75,4.63,KI,1677443123
470,Banepā,27.6298,85.5214,9.52,87,40,1.03,NP,1677443123
471,Taoudenni,22.6783,-3.9836,22.91,16,0,4.28,ML,1677443124
472,Pacific Grove,36.6177,-121.9166,12.26,74,100,4.02,US,1677443125
473,Lüderitz,-26.6481,15.1594,17.39,79,0,7.07,NA,1677443125
474,Acapulco de Juárez,16.8634,-99.8901,29.9,62,0,4.63,MX,1677443126
475,Eagle Pass,28.7091,-100.4995,28.47,54,20,7.2,US,1677443127
476,Verkhnevilyuysk,63.4453,120.3167,-34.91,98,22,1.94,RU,1677443128
477,Asău,46.4333,26.4,0.71,98,100,1.9,RO,1677443129
478,Cimişlia,46.52,28.7842,4.08,87,100,5.91,MD,1677443130
479,Port Lincoln,-34.7333,135.8667,15.91,71,82,3.91,AU,1677443130
480,Bang Saphan,11.2126,99.5117,22.61,75,77,2.31,TH,1677443131
481,Grindavik,63.8424,-22.4338,6.97,100,75,9.26,IS,1677443132
482,Fortuna,40.5982,-124.1573,9.4,76,40,3.6,US,1677443132
483,Assiut,27.181,31.1837,17.69,28,3,2.95,EG,1677443133
484,Airai,-8.9266,125.4092,15.37,95,100,2.03,TL,1677443134
485,Oiã,40.5426,-8.5386,11.74,85,0,0.45,PT,1677443134
486,Kanniyākumāri,8.0833,77.5667,24.59,70,8,9.09,IN,1677443135
487,Myitkyina,25.3833,97.4,15.54,76,56,1.63,MM,1677443137
488,Shimanovsk,52.0,127.7,-9.36,95,100,2.66,RU,1677443139
489,Hirado,33.3597,129.5531,7.75,64,3,6.58,JP,1677443139
490,Barra de Tecoanapa,16.5167,-98.75,29.4,57,0,5.03,MX,1677443140
491,Den Helder,52.9599,4.7593,4.99,71,20,5.36,NL,1677443141
492,Valavanur,11.9209,79.5824,20.52,77,6,2.34,IN,1677443141
493,Bloemfontein,-29.1211,26.214,22.71,64,0,4.12,ZA,1677443142
494,Bereda,43.2686,-7.5406,5.08,81,13,4.68,ES,1677443143
495,Artsvaberd,40.8336,45.4711,2.29,57,5,3.92,AM,1677443143
496,Mehamn,71.0357,27.8492,2.97,87,75,4.63,NO,1677443144
497,Vila,42.0304,-8.1588,3.49,76,4,1.79,PT,1677443144
498,Melfi,40.9965,15.6514,9.31,78,100,3.64,IT,1677443145
499,Gornopravdinsk,60.05,69.9,-18.83,100,100,1.63,RU,1677442929
500,Talcahuano,-36.7167,-73.1167,21.82,46,0,9.26,CL,1677443146
501,La Romana,18.4273,-68.9728,29.2,58,40,5.14,DO,1677443147
502,Gazojak,41.1875,61.4036,3.24,50,65,4.06,TM,1677443147
503,Pisco,-13.7,-76.2167,27.03,61,0,3.09,PE,1677443148
504,Doka,13.5167,35.7667,31.11,16,5,7.63,SD,1677443149
505,Umluj,25.0213,37.2685,20.34,61,0,4.22,SA,1677443149
506,Camapuã,-19.5314,-54.0439,27.48,79,100,1.26,BR,1677443150
507,Rincon,32.296,-81.2354,28.28,52,75,5.66,US,1677443150
508,Bolu Province,40.6667,31.5833,7.89,59,67,2.87,TR,1677443151
509,Ketchikan,55.3422,-131.6461,1.26,80,75,2.57,US,1677443151
510,Matagami,49.7502,-77.6328,-7.94,73,100,5.66,CA,1677443152
511,Tarancón,40.0085,-3.0073,2.49,61,0,4.73,ES,1677443152
512,Ulaanbaatar,47.9077,106.8832,-6.93,79,40,6.0,MN,1677443056
513,Dossor,47.5272,52.9811,-1.25,74,21,5.81,KZ,1677443153
514,Honningsvåg,70.9821,25.9704,3.86,75,40,9.77,NO,1677443154
515,Nísia Floresta,-6.0911,-35.2086,29.45,63,2,4.86,BR,1677443154
516,Sterling,39.0062,-77.4286,15.04,55,20,5.14,US,1677442888
517,Fort Nelson,58.8053,-122.7002,-7.81,67,75,0.0,CA,1677443155
518,Jiuquan,39.7432,98.5174,-0.78,59,2,3.78,CN,1677443156
519,Departamento de Maldonado,-34.6667,-54.9167,22.66,39,0,5.25,UY,1677443146
520,Visby,57.6409,18.296,1.12,69,75,7.2,SE,1677443157
521,Mossamedes,-15.1961,12.1522,23.8,78,92,1.15,AO,1677443157
522,Río Gallegos,-51.6226,-69.2181,20.03,30,0,3.6,AR,1677443158
523,Constitución,-35.3333,-72.4167,21.97,46,14,8.31,CL,1677443159
524,Mogadouro,41.3403,-6.7119,3.93,73,39,3.01,PT,1677443159
525,Kulevcha,46.0303,29.9361,10.32,77,100,3.58,UA,1677443160
526,Sakakah,29.9697,40.2064,17.76,32,0,4.09,SA,1677443160
527,Shitanjing,39.2342,106.3439,2.77,60,87,0.89,CN,1677443161
528,Upata,8.0086,-62.3989,30.66,42,80,3.53,VE,1677443162
529,Phan Thiet,10.9333,108.1,22.16,65,78,3.38,VN,1677443163
530,Thinadhoo,0.5333,72.9333,27.48,78,92,4.75,MV,1677443164
531,Mackay,-21.15,149.2,23.16,80,100,5.93,AU,1677443165
532,Moerai,-22.4333,-151.3333,26.68,75,95,2.96,PF,1677443165
533,Butaritari,3.0707,172.7902,27.32,78,100,4.88,KI,1677443166
534,Voh,-20.9667,164.7,24.86,87,24,2.8,NC,1677443166
535,Shingū,33.7333,135.9833,1.46,73,1,2.83,JP,1677443167
536,Harrisonburg,38.4496,-78.8689,17.23,26,0,8.23,US,1677442905
537,Lufkin,31.3382,-94.7291,28.8,53,75,5.14,US,1677443168
538,Kupang,-10.1667,123.5833,25.9,86,100,9.32,ID,1677443169
539,Wawa,9.9022,4.4192,32.58,19,59,1.74,NG,1677443170
540,Novyye Gorki,56.7253,41.0601,-1.74,86,100,5.04,RU,1677443171
541,Kimbe,-5.5502,150.1429,24.59,93,100,1.29,PG,1677443172
542,Lorengau,-2.0226,147.2712,26.42,84,100,1.95,PG,1677443172
543,Ternate,0.8,127.4,26.58,81,98,2.93,ID,1677443174
544,Havøysund,70.9963,24.6622,4.13,81,100,10.95,NO,1677443174
545,Härnösand,62.6323,17.9379,1.0,90,100,4.04,SE,1677443175
546,Lebyazh'ye,55.2689,66.4947,-5.65,89,90,7.02,RU,1677443176
547,Māngrol,21.1167,70.1167,23.2,48,0,4.25,IN,1677443176
548,Sisophon,13.5859,102.9737,19.01,64,41,4.68,KH,1677443177
549,Tsagan Aman,47.5639,46.7218,1.61,89,100,4.87,RU,1677443179
550,Coquimbo,-29.9533,-71.3436,19.85,77,20,6.17,CL,1677442960
551,Aklavik,68.2191,-135.0107,-15.0,85,100,1.54,CA,1677443179
552,Halifax,44.6453,-63.5724,-6.29,65,100,4.12,CA,1677442636
553,Abu Dhabi,24.4667,54.3667,26.64,62,0,1.54,AE,1677442796
554,Bonthe,7.5264,-12.505,24.85,80,54,4.58,SL,1677443182
555,Brainerd,46.358,-94.2008,-1.86,39,0,2.57,US,1677442985
556,Philadelphia,39.9523,-75.1638,12.25,62,40,7.72,US,1677443183
557,Cape Canaveral,28.4058,-80.6048,30.11,66,0,5.66,US,1677443184
558,Shikhazany,55.5605,47.393,1.46,89,100,6.91,RU,1677443185
559,Kismayo,-0.3582,42.5454,25.6,78,100,7.81,SO,1677443185
560,Sfântu Gheorghe,45.8667,25.7833,7.93,93,100,2.11,RO,1677443186
561,Vila Velha,-20.3297,-40.2925,28.97,73,0,7.2,BR,1677443187
562,Ushtobe,45.2514,77.9838,-9.82,92,6,4.38,KZ,1677443188
563,Dryden,49.7833,-92.7503,-10.84,44,0,2.06,CA,1677443188
564,Sumbe,-11.2061,13.8437,25.86,88,100,3.2,AO,1677443189
565,La Ronge,55.1001,-105.2842,-8.86,53,100,5.66,CA,1677443190
566,Amazar,53.858,120.875,-8.61,97,100,1.24,RU,1677443190
567,Nyurba,63.2842,118.3319,-36.92,100,44,1.28,RU,1677443192
568,Panabá,21.2833,-88.2667,34.4,24,0,5.22,MX,1677443193
